[
  { "id": "KVK-AP-01", "name": "Krishi Vigyan Kendra, Anantapur (Reddipalli)", "host_institute": "ANGRAU", "district": "Anantapur", "state": "Andhra Pradesh", "coordinates": { "lat": 14.7147, "lng": 77.6010 } },
  { "id": "KVK-AP-02", "name": "Krishi Vigyan Kendra, Chittoor (Kalikiri)", "host_institute": "ANGRAU", "district": "Chittoor", "state": "Andhra Pradesh", "coordinates": { "lat": 13.6850, "lng": 78.7750 } },
  { "id": "KVK-AP-03", "name": "Krishi Vigyan Kendra, Guntur (Lam)", "host_institute": "ANGRAU", "district": "Guntur", "state": "Andhra Pradesh", "coordinates": { "lat": 16.3330, "lng": 80.4430 } },
  { "id": "KVK-AP-04", "name": "Krishi Vigyan Kendra, Krishna (Garikapadu)", "host_institute": "ANGRAU", "district": "Krishna", "state": "Andhra Pradesh", "coordinates": { "lat": 16.8900, "lng": 80.1200 } },
  { "id": "KVK-AP-05", "name": "Krishi Vigyan Kendra, Kurnool (Yagantipalle)", "host_institute": "Shri Hanumantharaya Memorial Charitable Trust (NGO)", "district": "Kurnool", "state": "Andhra Pradesh", "coordinates": { "lat": 15.3500, "lng": 78.1400 } },
  { "id": "KVK-AP-06", "name": "Krishi Vigyan Kendra, Nellore", "host_institute": "ANGRAU", "district": "Nellore", "state": "Andhra Pradesh", "coordinates": { "lat": 14.4426, "lng": 79.9865 } },
  { "id": "KVK-AP-07", "name": "Krishi Vigyan Kendra, Prakasam (Darsi)", "host_institute": "ANGRAU", "district": "Prakasam", "state": "Andhra Pradesh", "coordinates": { "lat": 15.7700, "lng": 79.6800 } },
  { "id": "KVK-AP-08", "name": "Krishi Vigyan Kendra, Srikakulam (Amadalavalasa)", "host_institute": "ANGRAU", "district": "Srikakulam", "state": "Andhra Pradesh", "coordinates": { "lat": 18.4200, "lng": 83.9000 } },
  { "id": "KVK-AP-09", "name": "Krishi Vigyan Kendra, Visakhapatnam (Kondempudi)", "host_institute": "Bhagavatula Charitable Trust (NGO)", "district": "Visakhapatnam", "state": "Andhra Pradesh", "coordinates": { "lat": 17.6800, "lng": 83.0000 } },
  { "id": "KVK-AP-10", "name": "Krishi Vigyan Kendra, Vizianagaram", "host_institute": "ANGRAU", "district": "Vizianagaram", "state": "Andhra Pradesh", "coordinates": { "lat": 18.1167, "lng": 83.4167 } },
  { "id": "KVK-AP-11", "name": "Krishi Vigyan Kendra, West Godavari (Venkataramannagudem)", "host_institute": "Dr. Y.S.R. Horticultural University", "district": "West Godavari", "state": "Andhra Pradesh", "coordinates": { "lat": 16.8300, "lng": 81.5000 } },
  { "id": "KVK-AP-12", "name": "Krishi Vigyan Kendra, East Godavari (Kalavacharla)", "host_institute": "CTRI (ICAR)", "district": "East Godavari", "state": "Andhra Pradesh", "coordinates": { "lat": 17.0005, "lng": 81.7835 } },
  { "id": "KVK-AP-13", "name": "Krishi Vigyan Kendra, Kadapa (Utukur)", "host_institute": "ANGRAU", "district": "YSR Kadapa", "state": "Andhra Pradesh", "coordinates": { "lat": 14.4700, "lng": 78.8200 } },
  { "id": "KVK-AP-14", "name": "Krishi Vigyan Kendra, West Godavari (Undi)", "host_institute": "ANGRAU", "district": "West Godavari", "state": "Andhra Pradesh", "coordinates": { "lat": 16.6000, "lng": 81.4600 } },
  { "id": "KVK-AP-15", "name": "Krishi Vigyan Kendra, Anantapur (Kalyandurg)", "host_institute": "ANGRAU", "district": "Anantapur", "state": "Andhra Pradesh", "coordinates": { "lat": 14.5500, "lng": 77.1000 } },
  { "id": "KVK-AP-16", "name": "Krishi Vigyan Kendra, Prakasam (Kandukur)", "host_institute": "ANGRAU", "district": "Prakasam", "state": "Andhra Pradesh", "coordinates": { "lat": 15.2200, "lng": 79.9000 } },
  { "id": "KVK-AP-17", "name": "Krishi Vigyan Kendra, Kurnool (Banavasi)", "host_institute": "ANGRAU", "district": "Kurnool", "state": "Andhra Pradesh", "coordinates": { "lat": 15.6500, "lng": 77.8500 } },
  { "id": "KVK-AP-18", "name": "Krishi Vigyan Kendra, Krishna (Ghantasala)", "host_institute": "ANGRAU", "district": "Krishna", "state": "Andhra Pradesh", "coordinates": { "lat": 16.1500, "lng": 80.9300 } },
  { "id": "KVK-AP-19", "name": "Krishi Vigyan Kendra, Vizianagaram (Rastakuntubai)", "host_institute": "ANGRAU", "district": "Vizianagaram", "state": "Andhra Pradesh", "coordinates": { "lat": 18.5200, "lng": 83.4500 } },
  { "id": "KVK-AP-20", "name": "Krishi Vigyan Kendra, Chittoor (RASS)", "host_institute": "Rashtriya Seva Samithi (NGO)", "district": "Chittoor", "state": "Andhra Pradesh", "coordinates": { "lat": 13.6288, "lng": 79.4192 } },
  { "id": "KVK-AP-21", "name": "Krishi Vigyan Kendra, Nellore (Periyavaram)", "host_institute": "Dr. Y.S.R. Horticultural University", "district": "Nellore", "state": "Andhra Pradesh", "coordinates": { "lat": 14.0500, "lng": 79.7500 } },
  { "id": "KVK-AP-22", "name": "Krishi Vigyan Kendra, East Godavari (Pandirimamidi)", "host_institute": "Dr. Y.S.R. Horticultural University", "district": "East Godavari", "state": "Andhra Pradesh", "coordinates": { "lat": 17.2500, "lng": 81.7500 } },
  { "id": "KVK-AP-23", "name": "Krishi Vigyan Kendra, Anantapur (Rekulakunta)", "host_institute": "ANGRAU", "district": "Anantapur", "state": "Andhra Pradesh", "coordinates": { "lat": 14.6800, "lng": 77.6000 } },
  { "id": "KVK-AP-24", "name": "Krishi Vigyan Kendra, Guntur (Guntur-II)", "host_institute": "ANGRAU", "district": "Guntur", "state": "Andhra Pradesh", "coordinates": { "lat": 16.3000, "lng": 80.4500 } }
]