[
  { "id": "KVK-AR-01", "name": "Krishi Vigyan Kendra, Lohit", "host_institute": "Directorate of Agriculture, Govt. of Arunachal Pradesh", "district": "Lohit", "state": "Arunachal Pradesh", "coordinates": { "lat": 27.9146, "lng": 96.1717 } },
  { "id": "KVK-AR-02", "name": "Krishi Vigyan Kendra, Upper Siang", "host_institute": "Directorate of Agriculture, Govt. of Arunachal Pradesh", "district": "Upper Siang", "state": "Arunachal Pradesh", "coordinates": { "lat": 28.6184, "lng": 94.9455 } },
  { "id": "KVK-AR-03", "name": "Krishi Vigyan Kendra, West Kameng", "host_institute": "Directorate of Agriculture, Govt. of Arunachal Pradesh", "district": "West Kameng", "state": "Arunachal Pradesh", "coordinates": { "lat": 27.3167, "lng": 92.4277 } },
  { "id": "KVK-AR-04", "name": "Krishi Vigyan Kendra, East Kameng", "host_institute": "Directorate of Agriculture, Govt. of Arunachal Pradesh", "district": "East Kameng", "state": "Arunachal Pradesh", "coordinates": { "lat": 27.3291, "lng": 93.0762 } },
  { "id": "KVK-AR-05", "name": "Krishi Vigyan Kendra, Lower Subansiri", "host_institute": "Directorate of Agriculture, Govt. of Arunachal Pradesh", "district": "Lower Subansiri", "state": "Arunachal Pradesh", "coordinates": { "lat": 27.4842, "lng": 93.8407 } },
  { "id": "KVK-AR-06", "name": "Krishi Vigyan Kendra, Papum Pare", "host_institute": "Directorate of Agriculture, Govt. of Arunachal Pradesh", "district": "Papum Pare", "state": "Arunachal Pradesh", "coordinates": { "lat": 27.1465, "lng": 93.7330 } },
  { "id": "KVK-AR-07", "name": "Krishi Vigyan Kendra, Upper Subansiri", "host_institute": "Directorate of Agriculture, Govt. of Arunachal Pradesh", "district": "Upper Subansiri", "state": "Arunachal Pradesh", "coordinates": { "lat": 28.0062, "lng": 94.1245 } },
  { "id": "KVK-AR-08", "name": "Krishi Vigyan Kendra, West Siang (Basar)", "host_institute": "ICAR Research Complex for NEH Region", "district": "West Siang", "state": "Arunachal Pradesh", "coordinates": { "lat": 27.9944, "lng": 94.6934 } },
  { "id": "KVK-AR-09", "name": "Krishi Vigyan Kendra, East Siang", "host_institute": "Central Agricultural University", "district": "East Siang", "state": "Arunachal Pradesh", "coordinates": { "lat": 28.0694, "lng": 95.3340 } },
  { "id": "KVK-AR-10", "name": "Krishi Vigyan Kendra, Tirap", "host_institute": "Directorate of Agriculture, Govt. of Arunachal Pradesh", "district": "Tirap", "state": "Arunachal Pradesh", "coordinates": { "lat": 27.0016, "lng": 95.4975 } },
  { "id": "KVK-AR-11", "name": "Krishi Vigyan Kendra, Changlang", "host_institute": "Directorate of Agriculture, Govt. of Arunachal Pradesh", "district": "Changlang", "state": "Arunachal Pradesh", "coordinates": { "lat": 27.1264, "lng": 96.6163 } },
  { "id": "KVK-AR-12", "name": "Krishi Vigyan Kendra, Tawang", "host_institute": "Directorate of Agriculture, Govt. of Arunachal Pradesh", "district": "Tawang", "state": "Arunachal Pradesh", "coordinates": { "lat": 27.5847, "lng": 91.8584 } },
  { "id": "KVK-AR-13", "name": "Krishi Vigyan Kendra, Kurung Kumey", "host_institute": "Directorate of Agriculture, Govt. of Arunachal Pradesh", "district": "Kurung Kumey", "state": "Arunachal Pradesh", "coordinates": { "lat": 27.9100, "lng": 93.4500 } },
  { "id": "KVK-AR-14", "name": "Krishi Vigyan Kendra, Lower Dibang Valley", "host_institute": "Directorate of Agriculture, Govt. of Arunachal Pradesh", "district": "Lower Dibang Valley", "state": "Arunachal Pradesh", "coordinates": { "lat": 28.1400, "lng": 95.8400 } },
  { "id": "KVK-AR-15", "name": "Krishi Vigyan Kendra, Anjaw", "host_institute": "ICAR Research Complex for NEH Region", "district": "Anjaw", "state": "Arunachal Pradesh", "coordinates": { "lat": 28.2700, "lng": 96.5500 } },
  { "id": "KVK-AR-16", "name": "Krishi Vigyan Kendra, Longding", "host_institute": "Directorate of Agriculture, Govt. of Arunachal Pradesh", "district": "Longding", "state": "Arunachal Pradesh", "coordinates": { "lat": 26.9100, "lng": 95.3400 } },
  { "id": "KVK-AR-17", "name": "Krishi Vigyan Kendra, Namsai", "host_institute": "Directorate of Agriculture, Govt. of Arunachal Pradesh", "district": "Namsai", "state": "Arunachal Pradesh", "coordinates": { "lat": 27.6700, "lng": 95.8600 } }
]