[
  { "id": "KVK-CT-01", "name": "Krishi Vigyan Kendra, Raipur", "host_institute": "Indira Gandhi Krishi Vishwavidyalaya", "district": "Raipur", "state": "Chhattisgarh", "coordinates": { "lat": 21.2514, "lng": 81.6296 } },
  { "id": "KVK-CT-02", "name": "Krishi Vigyan Kendra, Bilaspur", "host_institute": "Indira Gandhi Krishi Vishwavidyalaya", "district": "Bilaspur", "state": "Chhattisgarh", "coordinates": { "lat": 22.0797, "lng": 82.1391 } },
  { "id": "KVK-CT-03", "name": "Krishi Vigyan Kendra, Bastar (Jagdalpur)", "host_institute": "Indira Gandhi Krishi Vishwavidyalaya", "district": "Bastar", "state": "Chhattisgarh", "coordinates": { "lat": 19.0700, "lng": 82.0300 } },
  { "id": "KVK-CT-04", "name": "Krishi Vigyan Kendra, Ambikapur", "host_institute": "Indira Gandhi Krishi Vishwavidyalaya", "district": "Surguja", "state": "Chhattisgarh", "coordinates": { "lat": 23.1200, "lng": 83.2000 } },
  { "id": "KVK-CT-05", "name": "Krishi Vigyan Kendra, Dhamtari", "host_institute": "Indira Gandhi Krishi Vishwavidyalaya", "district": "Dhamtari", "state": "Chhattisgarh", "coordinates": { "lat": 20.7071, "lng": 81.5497 } },
  { "id": "KVK-CT-06", "name": "Krishi Vigyan Kendra, Mahasamund", "host_institute": "Indira Gandhi Krishi Vishwavidyalaya", "district": "Mahasamund", "state": "Chhattisgarh", "coordinates": { "lat": 21.1000, "lng": 82.1000 } },
  { "id": "KVK-CT-07", "name": "Krishi Vigyan Kendra, Janjgir-Champa", "host_institute": "Indira Gandhi Krishi Vishwavidyalaya", "district": "Janjgir-Champa", "state": "Chhattisgarh", "coordinates": { "lat": 22.0167, "lng": 82.5667 } },
  { "id": "KVK-CT-08", "name": "Krishi Vigyan Kendra, Korba", "host_institute": "Indira Gandhi Krishi Vishwavidyalaya", "district": "Korba", "state": "Chhattisgarh", "coordinates": { "lat": 22.3500, "lng": 82.6833 } },
  { "id": "KVK-CT-09", "name": "Krishi Vigyan Kendra, Raigarh", "host_institute": "Indira Gandhi Krishi Vishwavidyalaya", "district": "Raigarh", "state": "Chhattisgarh", "coordinates": { "lat": 21.9000, "lng": 83.4000 } },
  { "id": "KVK-CT-10", "name": "Krishi Vigyan Kendra, Kawardha", "host_institute": "Indira Gandhi Krishi Vishwavidyalaya", "district": "Kabirdham", "state": "Chhattisgarh", "coordinates": { "lat": 22.0167, "lng": 81.2500 } },
  { "id": "KVK-CT-11", "name": "Krishi Vigyan Kendra, Rajnandgaon", "host_institute": "Indira Gandhi Krishi Vishwavidyalaya", "district": "Rajnandgaon", "state": "Chhattisgarh", "coordinates": { "lat": 21.1000, "lng": 81.0333 } },
  { "id": "KVK-CT-12", "name": "Krishi Vigyan Kendra, Durg", "host_institute": "Indira Gandhi Krishi Vishwavidyalaya", "district": "Durg", "state": "Chhattisgarh", "coordinates": { "lat": 21.1900, "lng": 81.2800 } },
  { "id": "KVK-CT-13", "name": "Krishi Vigyan Kendra, Kanker", "host_institute": "Indira Gandhi Krishi Vishwavidyalaya", "district": "Uttar Bastar Kanker", "state": "Chhattisgarh", "coordinates": { "lat": 20.2700, "lng": 81.4900 } },
  { "id": "KVK-CT-14", "name": "Krishi Vigyan Kendra, Dantewada", "host_institute": "Indira Gandhi Krishi Vishwavidyalaya", "district": "Dakshin Bastar Dantewada", "state": "Chhattisgarh", "coordinates": { "lat": 18.9000, "lng": 81.3500 } },
  { "id": "KVK-CT-15", "name": "Krishi Vigyan Kendra, Jashpur", "host_institute": "Indira Gandhi Krishi Vishwavidyalaya", "district": "Jashpur", "state": "Chhattisgarh", "coordinates": { "lat": 22.9000, "lng": 84.1500 } },
  { "id": "KVK-CT-16", "name": "Krishi Vigyan Kendra, Koriya", "host_institute": "Indira Gandhi Krishi Vishwavidyalaya", "district": "Koriya", "state": "Chhattisgarh", "coordinates": { "lat": 23.2500, "lng": 82.5500 } },
  { "id": "KVK-CT-17", "name": "Krishi Vigyan Kendra, Narayanpur", "host_institute": "Indira Gandhi Krishi Vishwavidyalaya", "district": "Narayanpur", "state": "Chhattisgarh", "coordinates": { "lat": 19.7200, "lng": 81.2500 } },
  { "id": "KVK-CT-18", "name": "Krishi Vigyan Kendra, Bijapur", "host_institute": "Indira Gandhi Krishi Vishwavidyalaya", "district": "Bijapur", "state": "Chhattisgarh", "coordinates": { "lat": 18.8000, "lng": 80.8100 } },
  { "id": "KVK-CT-19", "name": "Krishi Vigyan Kendra, Gariaband", "host_institute": "Indira Gandhi Krishi Vishwavidyalaya", "district": "Gariaband", "state": "Chhattisgarh", "coordinates": { "lat": 20.9500, "lng": 81.9600 } },
  { "id": "KVK-CT-20", "name": "Krishi Vigyan Kendra, Balod", "host_institute": "Indira Gandhi Krishi Vishwavidyalaya", "district": "Balod", "state": "Chhattisgarh", "coordinates": { "lat": 20.7300, "lng": 81.2000 } },
  { "id": "KVK-CT-21", "name": "Krishi Vigyan Kendra, Bemetara", "host_institute": "Indira Gandhi Krishi Vishwavidyalaya", "district": "Bemetara", "state": "Chhattisgarh", "coordinates": { "lat": 21.7000, "lng": 81.5500 } },
  { "id": "KVK-CT-22", "name": "Krishi Vigyan Kendra, Baloda Bazar", "host_institute": "Indira Gandhi Krishi Vishwavidyalaya", "district": "Baloda Bazar", "state": "Chhattisgarh", "coordinates": { "lat": 21.6600, "lng": 82.1600 } },
  { "id": "KVK-CT-23", "name": "Krishi Vigyan Kendra, Mungeli", "host_institute": "Indira Gandhi Krishi Vishwavidyalaya", "district": "Mungeli", "state": "Chhattisgarh", "coordinates": { "lat": 22.0600, "lng": 81.6800 } },
  { "id": "KVK-CT-24", "name": "Krishi Vigyan Kendra, Kondagaon", "host_institute": "Indira Gandhi Krishi Vishwavidyalaya", "district": "Kondagaon", "state": "Chhattisgarh", "coordinates": { "lat": 19.6000, "lng": 81.6700 } },
  { "id": "KVK-CT-25", "name": "Krishi Vigyan Kendra, Sukma", "host_institute": "Indira Gandhi Krishi Vishwavidyalaya", "district": "Sukma", "state": "Chhattisgarh", "coordinates": { "lat": 18.4000, "lng": 81.6600 } },
  { "id": "KVK-CT-26", "name": "Krishi Vigyan Kendra, Balrampur", "host_institute": "Indira Gandhi Krishi Vishwavidyalaya", "district": "Balrampur", "state": "Chhattisgarh", "coordinates": { "lat": 23.6000, "lng": 83.6100 } },
  { "id": "KVK-CT-27", "name": "Krishi Vigyan Kendra, Surajpur", "host_institute": "Indira Gandhi Krishi Vishwavidyalaya", "district": "Surajpur", "state": "Chhattisgarh", "coordinates": { "lat": 23.2200, "lng": 82.8500 } }
]