[
  { "id": "KVK-GJ-01", "name": "Krishi Vigyan Kendra, Amreli", "host_institute": "Junagadh Agricultural University", "district": "Amreli", "state": "Gujarat", "coordinates": { "lat": 21.6032, "lng": 71.2221 } },
  { "id": "KVK-GJ-02", "name": "Krishi Vigyan Kendra, Ahmedabad (Dholka)", "host_institute": "Anand Agricultural University", "district": "Ahmedabad", "state": "Gujarat", "coordinates": { "lat": 22.7275, "lng": 72.4632 } },
  { "id": "KVK-GJ-03", "name": "Krishi Vigyan Kendra, Banaskantha (Deesa)", "host_institute": "Sardarkrushinagar Dantiwada Agril. University", "district": "Banaskantha", "state": "Gujarat", "coordinates": { "lat": 24.2500, "lng": 72.1833 } },
  { "id": "KVK-GJ-04", "name": "Krishi Vigyan Kendra, Bharuch (Chaswad)", "host_institute": "Navsari Agricultural University", "district": "Bharuch", "state": "Gujarat", "coordinates": { "lat": 21.7051, "lng": 72.9959 } },
  { "id": "KVK-GJ-05", "name": "Krishi Vigyan Kendra, Bhavnagar (Sanandara)", "host_institute": "Lokbharti Gramvidyapith (NGO)", "district": "Bhavnagar", "state": "Gujarat", "coordinates": { "lat": 21.7645, "lng": 72.1519 } },
  { "id": "KVK-GJ-06", "name": "Krishi Vigyan Kendra, Dahod", "host_institute": "Anand Agricultural University", "district": "Dahod", "state": "Gujarat", "coordinates": { "lat": 22.8373, "lng": 74.2541 } },
  { "id": "KVK-GJ-07", "name": "Krishi Vigyan Kendra, Dang (Waghai)", "host_institute": "Navsari Agricultural University", "district": "Dang", "state": "Gujarat", "coordinates": { "lat": 20.7675, "lng": 73.4939 } },
  { "id": "KVK-GJ-08", "name": "Krishi Vigyan Kendra, Jamnagar", "host_institute": "Junagadh Agricultural University", "district": "Jamnagar", "state": "Gujarat", "coordinates": { "lat": 22.4707, "lng": 70.0577 } },
  { "id": "KVK-GJ-09", "name": "Krishi Vigyan Kendra, Junagadh", "host_institute": "Junagadh Agricultural University", "district": "Junagadh", "state": "Gujarat", "coordinates": { "lat": 21.5222, "lng": 70.4579 } },
  { "id": "KVK-GJ-10", "name": "Krishi Vigyan Kendra, Kutch (Mundra)", "host_institute": "Sardarkrushinagar Dantiwada Agril. University", "district": "Kutch", "state": "Gujarat", "coordinates": { "lat": 22.8375, "lng": 69.7303 } },
  { "id": "KVK-GJ-11", "name": "Krishi Vigyan Kendra, Kheda (Arnej)", "host_institute": "Anand Agricultural University", "district": "Kheda", "state": "Gujarat", "coordinates": { "lat": 22.7511, "lng": 72.6822 } },
  { "id": "KVK-GJ-12", "name": "Krishi Vigyan Kendra, Mehsana (Kheralu)", "host_institute": "Sardarkrushinagar Dantiwada Agril. University", "district": "Mehsana", "state": "Gujarat", "coordinates": { "lat": 23.6000, "lng": 72.4000 } },
  { "id": "KVK-GJ-13", "name": "Krishi Vigyan Kendra, Narmada (Dediapada)", "host_institute": "Navsari Agricultural University", "district": "Narmada", "state": "Gujarat", "coordinates": { "lat": 21.6333, "lng": 73.5833 } },
  { "id": "KVK-GJ-14", "name": "Krishi Vigyan Kendra, Navsari", "host_institute": "Navsari Agricultural University", "district": "Navsari", "state": "Gujarat", "coordinates": { "lat": 20.9467, "lng": 72.9279 } },
  { "id": "KVK-GJ-15", "name": "Krishi Vigyan Kendra, Panchmahal (Vejalpur)", "host_institute": "Anand Agricultural University", "district": "Panchmahal", "state": "Gujarat", "coordinates": { "lat": 22.6880, "lng": 73.6120 } },
  { "id": "KVK-GJ-16", "name": "Krishi Vigyan Kendra, Patan (Sami)", "host_institute": "Sardarkrushinagar Dantiwada Agril. University", "district": "Patan", "state": "Gujarat", "coordinates": { "lat": 23.8667, "lng": 72.1167 } },
  { "id": "KVK-GJ-17", "name": "Krishi Vigyan Kendra, Porbandar", "host_institute": "Junagadh Agricultural University", "district": "Porbandar", "state": "Gujarat", "coordinates": { "lat": 21.6417, "lng": 69.6093 } },
  { "id": "KVK-GJ-18", "name": "Krishi Vigyan Kendra, Rajkot (Targhadia)", "host_institute": "Junagadh Agricultural University", "district": "Rajkot", "state": "Gujarat", "coordinates": { "lat": 22.3039, "lng": 70.8022 } },
  { "id": "KVK-GJ-19", "name": "Krishi Vigyan Kendra, Sabarkantha (Khedbrahma)", "host_institute": "Sardarkrushinagar Dantiwada Agril. University", "district": "Sabarkantha", "state": "Gujarat", "coordinates": { "lat": 24.0333, "lng": 73.0500 } },
  { "id": "KVK-GJ-20", "name": "Krishi Vigyan Kendra, Surat (Vyara)", "host_institute": "Navsari Agricultural University", "district": "Tapi", "state": "Gujarat", "coordinates": { "lat": 21.1167, "lng": 73.4000 } },
  { "id": "KVK-GJ-21", "name": "Krishi Vigyan Kendra, Surendranagar", "host_institute": "Junagadh Agricultural University", "district": "Surendranagar", "state": "Gujarat", "coordinates": { "lat": 22.7219, "lng": 71.6384 } },
  { "id": "KVK-GJ-22", "name": "Krishi Vigyan Kendra, Vadodara", "host_institute": "Anand Agricultural University", "district": "Vadodara", "state": "Gujarat", "coordinates": { "lat": 22.3072, "lng": 73.1812 } },
  { "id": "KVK-GJ-23", "name": "Krishi Vigyan Kendra, Valsad (Ambheti)", "host_institute": "Navsari Agricultural University", "district": "Valsad", "state": "Gujarat", "coordinates": { "lat": 20.4000, "lng": 72.9833 } },
  { "id": "KVK-GJ-24", "name": "Krishi Vigyan Kendra, Tapi (Vyara)", "host_institute": "Navsari Agricultural University", "district": "Tapi", "state": "Gujarat", "coordinates": { "lat": 21.1167, "lng": 73.4000 } },
  { "id": "KVK-GJ-25", "name": "Krishi Vigyan Kendra, Gir Somnath (Kodinar)", "host_institute": "Junagadh Agricultural University", "district": "Gir Somnath", "state": "Gujarat", "coordinates": { "lat": 20.7930, "lng": 70.7020 } },
  { "id": "KVK-GJ-26", "name": "Krishi Vigyan Kendra, Devbhumi Dwarka", "host_institute": "Junagadh Agricultural University", "district": "Devbhumi Dwarka", "state": "Gujarat", "coordinates": { "lat": 22.2394, "lng": 68.9678 } },
  { "id": "KVK-GJ-27", "name": "Krishi Vigyan Kendra, Mahisagar", "host_institute": "Anand Agricultural University", "district": "Mahisagar", "state": "Gujarat", "coordinates": { "lat": 23.1833, "lng": 73.7167 } },
  { "id": "KVK-GJ-28", "name": "Krishi Vigyan Kendra, Botad", "host_institute": "Junagadh Agricultural University", "district": "Botad", "state": "Gujarat", "coordinates": { "lat": 22.1700, "lng": 71.6600 } },
  { "id": "KVK-GJ-29", "name": "Krishi Vigyan Kendra, Chhotaudepur", "host_institute": "Anand Agricultural University", "district": "Chhotaudepur", "state": "Gujarat", "coordinates": { "lat": 22.3100, "lng": 74.0100 } },
  { "id": "KVK-GJ-30", "name": "Krishi Vigyan Kendra, Kutch (Bhuj)", "host_institute": "Vivekanand Institute of Biotechnology (NGO)", "district": "Kutch", "state": "Gujarat", "coordinates": { "lat": 23.2384, "lng": 69.6669 } }
]