[
  { "id": "KVK-KA-01", "name": "Krishi Vigyan Kendra, Ramanagram", "host_institute": "University of Agril. Sciences, Bangalore", "district": "Ramanagram", "state": "Karnataka", "coordinates": { "lat": 12.7209, "lng": 77.2761 } },
  { "id": "KVK-KA-02", "name": "Krishi Vigyan Kendra, Tumkur (IIHR)", "host_institute": "ICAR-IIHR", "district": "Tumkur", "state": "Karnataka", "coordinates": { "lat": 13.3379, "lng": 77.1173 } },
  { "id": "KVK-KA-03", "name": "Krishi Vigyan Kendra, Bangalore Rural", "host_institute": "University of Agricultural Sciences, Bangalore", "district": "Bangalore Rural", "state": "Karnataka", "coordinates": { "lat": 13.2917, "lng": 77.5386 } },
  { "id": "KVK-KA-04", "name": "Krishi Vigyan Kendra, Bagalkot", "host_institute": "University of Agril. Sciences, Dharwad", "district": "Bagalkot", "state": "Karnataka", "coordinates": { "lat": 16.1817, "lng": 75.6958 } },
  { "id": "KVK-KA-05", "name": "Krishi Vigyan Kendra, Dharwad", "host_institute": "University of Agril. Sciences, Dharwad", "district": "Dharwad", "state": "Karnataka", "coordinates": { "lat": 15.4589, "lng": 75.0078 } },
  { "id": "KVK-KA-06", "name": "Krishi Vigyan Kendra, Koppal (Gangavati)", "host_institute": "University of Agril. Sciences, Raichur", "district": "Koppal", "state": "Karnataka", "coordinates": { "lat": 15.4312, "lng": 76.5292 } },
  { "id": "KVK-KA-07", "name": "Krishi Vigyan Kendra, Gulbarga", "host_institute": "University of Agril. Sciences, Raichur", "district": "Kalaburagi", "state": "Karnataka", "coordinates": { "lat": 17.3297, "lng": 76.8343 } },
  { "id": "KVK-KA-08", "name": "Krishi Vigyan Kendra, Bijapur", "host_institute": "University of Agril. Sciences, Dharwad", "district": "Vijayapura", "state": "Karnataka", "coordinates": { "lat": 16.8302, "lng": 75.7100 } },
  { "id": "KVK-KA-09", "name": "Krishi Vigyan Kendra, Uttara Kannada (Sirsi)", "host_institute": "University of Agril. Sciences, Dharwad", "district": "Uttara Kannada", "state": "Karnataka", "coordinates": { "lat": 14.6195, "lng": 74.8441 } },
  { "id": "KVK-KA-10", "name": "Krishi Vigyan Kendra, Mandya", "host_institute": "University of Agril. Sciences, Bangalore", "district": "Mandya", "state": "Karnataka", "coordinates": { "lat": 12.5218, "lng": 76.8951 } },
  { "id": "KVK-KA-11", "name": "Krishi Vigyan Kendra, Shimoga", "host_institute": "University of Agril. Sciences, Bangalore", "district": "Shivamogga", "state": "Karnataka", "coordinates": { "lat": 13.9299, "lng": 75.5681 } },
  { "id": "KVK-KA-12", "name": "Krishi Vigyan Kendra, Tumkur (Konehally)", "host_institute": "University of Agril. Sciences, Bangalore", "district": "Tumkur", "state": "Karnataka", "coordinates": { "lat": 13.2500, "lng": 76.4800 } },
  { "id": "KVK-KA-13", "name": "Krishi Vigyan Kendra, Udupi (Brahmavar)", "host_institute": "University of Agril. Sciences, Bangalore", "district": "Udupi", "state": "Karnataka", "coordinates": { "lat": 13.4219, "lng": 74.7475 } },
  { "id": "KVK-KA-14", "name": "Krishi Vigyan Kendra, Chitradurga (Hiriyur)", "host_institute": "University of Agril. Sciences, Bangalore", "district": "Chitradurga", "state": "Karnataka", "coordinates": { "lat": 13.9455, "lng": 76.6201 } },
  { "id": "KVK-KA-15", "name": "Krishi Vigyan Kendra, Dakshina Kannada", "host_institute": "KVAFSU, Bidar", "district": "Dakshina Kannada", "state": "Karnataka", "coordinates": { "lat": 12.8706, "lng": 74.8804 } },
  { "id": "KVK-KA-16", "name": "Krishi Vigyan Kendra, Chamrajanagar", "host_institute": "University of Agril. Sciences, Bangalore", "district": "Chamarajanagar", "state": "Karnataka", "coordinates": { "lat": 11.9261, "lng": 76.9437 } },
  { "id": "KVK-KA-17", "name": "Krishi Vigyan Kendra, Davanagere", "host_institute": "Taralabalu Rural Development Foundation (NGO)", "district": "Davanagere", "state": "Karnataka", "coordinates": { "lat": 14.4644, "lng": 75.9218 } },
  { "id": "KVK-KA-18", "name": "Krishi Vigyan Kendra, Raichur", "host_institute": "University of Agril. Sciences, Raichur", "district": "Raichur", "state": "Karnataka", "coordinates": { "lat": 16.2120, "lng": 77.3559 } },
  { "id": "KVK-KA-19", "name": "Krishi Vigyan Kendra, Bellary", "host_institute": "University of Agril. Sciences, Raichur", "district": "Ballari", "state": "Karnataka", "coordinates": { "lat": 15.1394, "lng": 76.9214 } },
  { "id": "KVK-KA-20", "name": "Krishi Vigyan Kendra, Chikkaballpur", "host_institute": "University of Agril. Sciences, Bangalore", "district": "Chikkaballapur", "state": "Karnataka", "coordinates": { "lat": 13.4354, "lng": 77.7275 } },
  { "id": "KVK-KA-21", "name": "Krishi Vigyan Kendra, Mysore (Suttur)", "host_institute": "JSS Mahavidyapeeth (NGO)", "district": "Mysuru", "state": "Karnataka", "coordinates": { "lat": 12.1275, "lng": 76.7025 } },
  { "id": "KVK-KA-22", "name": "Krishi Vigyan Kendra, Belgaum (Tukkanatti)", "host_institute": "BIRDS (NGO)", "district": "Belagavi", "state": "Karnataka", "coordinates": { "lat": 16.2230, "lng": 74.8210 } },
  { "id": "KVK-KA-23", "name": "Krishi Vigyan Kendra, Hassan", "host_institute": "University of Agril. Sciences, Bangalore", "district": "Hassan", "state": "Karnataka", "coordinates": { "lat": 13.0068, "lng": 76.1025 } },
  { "id": "KVK-KA-24", "name": "Krishi Vigyan Kendra, Bidar", "host_institute": "University of Agril. Sciences, Raichur", "district": "Bidar", "state": "Karnataka", "coordinates": { "lat": 17.9144, "lng": 77.5133 } },
  { "id": "KVK-KA-25", "name": "Krishi Vigyan Kendra, Chikkamagalur (Mudigere)", "host_institute": "University of Agril. Sciences, Bangalore", "district": "Chikkamagaluru", "state": "Karnataka", "coordinates": { "lat": 13.1317, "lng": 75.6322 } },
  { "id": "KVK-KA-26", "name": "Krishi Vigyan Kendra, Gadag", "host_institute": "KH Patil Krishi Vigyan Kendra", "district": "Gadag", "state": "Karnataka", "coordinates": { "lat": 15.4249, "lng": 75.6265 } },
  { "id": "KVK-KA-27", "name": "Krishi Vigyan Kendra, Haveri", "host_institute": "University of Agril. Sciences, Dharwad", "district": "Haveri", "state": "Karnataka", "coordinates": { "lat": 14.7959, "lng": 75.4024 } },
  { "id": "KVK-KA-28", "name": "Krishi Vigyan Kendra, Kodagu (Gonikoppal)", "host_institute": "ICAR-IIHR", "district": "Kodagu", "state": "Karnataka", "coordinates": { "lat": 12.1333, "lng": 75.9167 } },
  { "id": "KVK-KA-29", "name": "Krishi Vigyan Kendra, Kolar", "host_institute": "University of Agril. Sciences, Bangalore", "district": "Kolar", "state": "Karnataka", "coordinates": { "lat": 13.1363, "lng": 78.1291 } },
  { "id": "KVK-KA-30", "name": "Krishi Vigyan Kendra, Belgaum (Mattikopp)", "host_institute": "KLE Society (NGO)", "district": "Belagavi", "state": "Karnataka", "coordinates": { "lat": 15.8497, "lng": 74.4977 } },
  { "id": "KVK-KA-31", "name": "Krishi Vigyan Kendra, Yadgir", "host_institute": "University of Agril. Sciences, Raichur", "district": "Yadgir", "state": "Karnataka", "coordinates": { "lat": 16.7667, "lng": 77.1333 } },
  { "id": "KVK-KA-32", "name": "Krishi Vigyan Kendra, Bangalore Urban", "host_institute": "University of Agricultural Sciences, Bangalore", "district": "Bangalore Urban", "state": "Karnataka", "coordinates": { "lat": 12.9716, "lng": 77.5946 } },
  { "id": "KVK-KA-33", "name": "Krishi Vigyan Kendra, Ballari (Hagari)", "host_institute": "University of Agril. Sciences, Raichur", "district": "Ballari", "state": "Karnataka", "coordinates": { "lat": 15.1000, "lng": 77.0600 } }
]