[
  { "id": "KVK-OD-01", "name": "Krishi Vigyan Kendra, Bolangir", "host_institute": "Orissa University of Agriculture and Technology", "district": "Bolangir", "state": "Odisha", "coordinates": { "lat": 20.7167, "lng": 83.4833 } },
  { "id": "KVK-OD-02", "name": "Krishi Vigyan Kendra, Malkangiri", "host_institute": "Orissa University of Agriculture & Technology", "district": "Malkangiri", "state": "Odisha", "coordinates": { "lat": 18.3444, "lng": 81.8906 } },
  { "id": "KVK-OD-03", "name": "Krishi Vigyan Kendra, Cuttack (Baramba)", "host_institute": "Orissa University of Agriculture & Technology", "district": "Cuttack", "state": "Odisha", "coordinates": { "lat": 20.4201, "lng": 85.3400 } },
  { "id": "KVK-OD-04", "name": "Krishi Vigyan Kendra, Jharsuguda", "host_institute": "Orissa University of Agriculture & Technology", "district": "Jharsuguda", "state": "Odisha", "coordinates": { "lat": 21.8569, "lng": 84.0041 } },
  { "id": "KVK-OD-05", "name": "Krishi Vigyan Kendra, Puri (Gop)", "host_institute": "Orissa University of Agriculture & Technology", "district": "Puri", "state": "Odisha", "coordinates": { "lat": 19.9863, "lng": 86.0125 } },
  { "id": "KVK-OD-06", "name": "Krishi Vigyan Kendra, Jagatsinghpur", "host_institute": "Orissa University of Agriculture & Technology", "district": "Jagatsinghpur", "state": "Odisha", "coordinates": { "lat": 20.2635, "lng": 86.1664 } },
  { "id": "KVK-OD-07", "name": "Krishi Vigyan Kendra, Gajapati (R. Udayagiri)", "host_institute": "Orissa University of Agriculture & Technology", "district": "Gajapati", "state": "Odisha", "coordinates": { "lat": 19.1668, "lng": 84.1482 } },
  { "id": "KVK-OD-08", "name": "Krishi Vigyan Kendra, Rayagada (Gunupur)", "host_institute": "Orissa University of Agriculture & Technology", "district": "Rayagada", "state": "Odisha", "coordinates": { "lat": 19.0805, "lng": 83.8166 } },
  { "id": "KVK-OD-09", "name": "Krishi Vigyan Kendra, Nuapada", "host_institute": "Orissa University of Agriculture & Technology", "district": "Nuapada", "state": "Odisha", "coordinates": { "lat": 20.8350, "lng": 82.5255 } },
  { "id": "KVK-OD-10", "name": "Krishi Vigyan Kendra, Boudh", "host_institute": "Orissa University of Agriculture & Technology", "district": "Boudh", "state": "Odisha", "coordinates": { "lat": 20.8384, "lng": 84.3241 } },
  { "id": "KVK-OD-11", "name": "Krishi Vigyan Kendra, Mayurbhanj (Shyamakhunta)", "host_institute": "Orissa University of Agriculture & Technology", "district": "Mayurbhanj", "state": "Odisha", "coordinates": { "lat": 21.9360, "lng": 86.6974 } },
  { "id": "KVK-OD-12", "name": "Krishi Vigyan Kendra, Sonepur", "host_institute": "Orissa University of Agriculture & Technology", "district": "Sonepur", "state": "Odisha", "coordinates": { "lat": 20.8378, "lng": 83.9248 } },
  { "id": "KVK-OD-13", "name": "Krishi Vigyan Kendra, Bhadrak", "host_institute": "Orissa University of Agriculture & Technology", "district": "Bhadrak", "state": "Odisha", "coordinates": { "lat": 21.0963, "lng": 86.4716 } },
  { "id": "KVK-OD-14", "name": "Krishi Vigyan Kendra, Nabarangpur (Umerkote)", "host_institute": "Orissa University of Agriculture & Technology", "district": "Nabarangpur", "state": "Odisha", "coordinates": { "lat": 19.6548, "lng": 82.1121 } },
  { "id": "KVK-OD-15", "name": "Krishi Vigyan Kendra, Sundergarh (Kirei)", "host_institute": "Orissa University of Agriculture & Technology", "district": "Sundergarh", "state": "Odisha", "coordinates": { "lat": 22.1009, "lng": 84.0152 } },
  { "id": "KVK-OD-16", "name": "Krishi Vigyan Kendra, Nayagarh (Balugaon)", "host_institute": "Orissa University of Agriculture & Technology", "district": "Nayagarh", "state": "Odisha", "coordinates": { "lat": 20.1264, "lng": 85.1051 } },
  { "id": "KVK-OD-17", "name": "Krishi Vigyan Kendra, Sambalpur (Chiplima)", "host_institute": "Orissa University of Agriculture & Technology", "district": "Sambalpur", "state": "Odisha", "coordinates": { "lat": 21.3533, "lng": 83.9009 } },
  { "id": "KVK-OD-18", "name": "Krishi Vigyan Kendra, Jajpur (Barachana)", "host_institute": "Orissa University of Agriculture & Technology", "district": "Jajpur", "state": "Odisha", "coordinates": { "lat": 20.6723, "lng": 86.1130 } },
  { "id": "KVK-OD-19", "name": "Krishi Vigyan Kendra, Kendrapara", "host_institute": "Orissa University of Agriculture & Technology", "district": "Kendrapara", "state": "Odisha", "coordinates": { "lat": 20.5050, "lng": 86.4216 } },
  { "id": "KVK-OD-20", "name": "Krishi Vigyan Kendra, Dhenkanal", "host_institute": "Orissa University of Agriculture & Technology", "district": "Dhenkanal", "state": "Odisha", "coordinates": { "lat": 20.6631, "lng": 85.5973 } },
  { "id": "KVK-OD-21", "name": "Krishi Vigyan Kendra, Angul", "host_institute": "Orissa University of Agriculture & Technology", "district": "Angul", "state": "Odisha", "coordinates": { "lat": 20.8404, "lng": 85.1508 } },
  { "id": "KVK-OD-22", "name": "Krishi Vigyan Kendra, Bargarh (Larambha)", "host_institute": "Orissa University of Agriculture & Technology", "district": "Bargarh", "state": "Odisha", "coordinates": { "lat": 21.2052, "lng": 83.7438 } },
  { "id": "KVK-OD-23", "name": "Krishi Vigyan Kendra, Kalahandi (Bhawanipatna)", "host_institute": "Orissa University of Agriculture & Technology", "district": "Kalahandi", "state": "Odisha", "coordinates": { "lat": 19.9079, "lng": 83.1643 } },
  { "id": "KVK-OD-24", "name": "Krishi Vigyan Kendra, Cuttack", "host_institute": "Central Rice Research Institute", "district": "Cuttack", "state": "Odisha", "coordinates": { "lat": 20.4625, "lng": 85.8830 } },
  { "id": "KVK-OD-25", "name": "Krishi Vigyan Kendra, Ganjam (Bhanjanagar)", "host_institute": "Orissa University of Agriculture & Technology", "district": "Ganjam", "state": "Odisha", "coordinates": { "lat": 19.9329, "lng": 84.5802 } },
  { "id": "KVK-OD-26", "name": "Krishi Vigyan Kendra, Balasore (Baliapal)", "host_institute": "Orissa University of Agriculture & Technology", "district": "Balasore", "state": "Odisha", "coordinates": { "lat": 21.6508, "lng": 87.2882 } },
  { "id": "KVK-OD-27", "name": "Krishi Vigyan Kendra, Koraput (Sunabeda)", "host_institute": "Orissa University of Agriculture & Technology", "district": "Koraput", "state": "Odisha", "coordinates": { "lat": 18.7237, "lng": 82.8055 } },
  { "id": "KVK-OD-28", "name": "Krishi Vigyan Kendra, Keonjhar", "host_institute": "Orissa University of Agriculture & Technology", "district": "Keonjhar", "state": "Odisha", "coordinates": { "lat": 21.6289, "lng": 85.5817 } },
  { "id": "KVK-OD-29", "name": "Krishi Vigyan Kendra, Kandhamal (Udyagiri)", "host_institute": "Orissa University of Agriculture & Technology", "district": "Kandhamal", "state": "Odisha", "coordinates": { "lat": 20.1342, "lng": 84.3855 } },
  { "id": "KVK-OD-30", "name": "Krishi Vigyan Kendra, Khurda (Kausalayaganga)", "host_institute": "Central Institute of Freshwater Aquaculture", "district": "Khurda", "state": "Odisha", "coordinates": { "lat": 20.2154, "lng": 85.8504 } },
  { "id": "KVK-OD-31", "name": "Krishi Vigyan Kendra, Ganjam (Ankushpur)", "host_institute": "Orissa University of Agriculture & Technology", "district": "Ganjam", "state": "Odisha", "coordinates": { "lat": 19.3308, "lng": 84.8471 } },
  { "id": "KVK-OD-32", "name": "Krishi Vigyan Kendra, Mayurbhanj (Jashipur)", "host_institute": "Orissa University of Agriculture & Technology", "district": "Mayurbhanj", "state": "Odisha", "coordinates": { "lat": 21.9669, "lng": 86.1661 } },
  { "id": "KVK-OD-33", "name": "Krishi Vigyan Kendra, Sundergarh (Rourkela)", "host_institute": "Orissa University of Agriculture & Technology", "district": "Sundergarh", "state": "Odisha", "coordinates": { "lat": 22.2604, "lng": 84.8536 } }
]