[
  { "id": "KVK-PB-01", "name": "Krishi Vigyan Kendra, Jalandhar", "host_institute": "Punjab Agricultural University", "district": "Jalandhar", "state": "Punjab", "coordinates": { "lat": 31.3260, "lng": 75.5762 } },
  { "id": "KVK-PB-02", "name": "Krishi Vigyan Kendra, Mansa", "host_institute": "Punjab Agricultural University", "district": "Mansa", "state": "Punjab", "coordinates": { "lat": 29.9888, "lng": 75.3934 } },
  { "id": "KVK-PB-03", "name": "Krishi Vigyan Kendra, Moga", "host_institute": "Punjab Agricultural University", "district": "Moga", "state": "Punjab", "coordinates": { "lat": 30.8230, "lng": 75.1734 } },
  { "id": "KVK-PB-04", "name": "Krishi Vigyan Kendra, Roopnagar (Ropar)", "host_institute": "Punjab Agricultural University", "district": "Roopnagar", "state": "Punjab", "coordinates": { "lat": 30.9664, "lng": 76.5331 } },
  { "id": "KVK-PB-05", "name": "Krishi Vigyan Kendra, Ludhiana", "host_institute": "Punjab Agricultural University", "district": "Ludhiana", "state": "Punjab", "coordinates": { "lat": 30.9010, "lng": 75.8523 } },
  { "id": "KVK-PB-06", "name": "Krishi Vigyan Kendra, Amritsar", "host_institute": "Punjab Agricultural University", "district": "Amritsar", "state": "Punjab", "coordinates": { "lat": 31.6340, "lng": 74.8723 } },
  { "id": "KVK-PB-07", "name": "Krishi Vigyan Kendra, Muktsar", "host_institute": "Punjab Agricultural University", "district": "Muktsar", "state": "Punjab", "coordinates": { "lat": 30.4762, "lng": 74.5223 } },
  { "id": "KVK-PB-08", "name": "Krishi Vigyan Kendra, Fatehgarh Sahib", "host_institute": "Punjab Agricultural University", "district": "Fatehgarh Sahib", "state": "Punjab", "coordinates": { "lat": 30.6425, "lng": 76.3926 } },
  { "id": "KVK-PB-09", "name": "Krishi Vigyan Kendra, Faridkot", "host_institute": "Punjab Agricultural University", "district": "Faridkot", "state": "Punjab", "coordinates": { "lat": 30.6769, "lng": 74.7275 } },
  { "id": "KVK-PB-10", "name": "Krishi Vigyan Kendra, Sangrur", "host_institute": "Punjab Agricultural University", "district": "Sangrur", "state": "Punjab", "coordinates": { "lat": 30.2458, "lng": 75.8421 } },
  { "id": "KVK-PB-11", "name": "Krishi Vigyan Kendra, Nawanshahar", "host_institute": "Punjab Agricultural University", "district": "Nawanshahar", "state": "Punjab", "coordinates": { "lat": 31.1256, "lng": 76.1158 } },
  { "id": "KVK-PB-12", "name": "Krishi Vigyan Kendra, Bathinda", "host_institute": "Punjab Agricultural University", "district": "Bathinda", "state": "Punjab", "coordinates": { "lat": 30.2110, "lng": 74.9455 } },
  { "id": "KVK-PB-13", "name": "Krishi Vigyan Kendra, Patiala", "host_institute": "Punjab Agricultural University", "district": "Patiala", "state": "Punjab", "coordinates": { "lat": 30.3398, "lng": 76.3869 } },
  { "id": "KVK-PB-14", "name": "Krishi Vigyan Kendra, Ferozepur", "host_institute": "Punjab Agricultural University", "district": "Ferozepur", "state": "Punjab", "coordinates": { "lat": 30.9238, "lng": 74.6108 } },
  { "id": "KVK-PB-15", "name": "Krishi Vigyan Kendra, Hoshiarpur", "host_institute": "Punjab Agricultural University", "district": "Hoshiarpur", "state": "Punjab", "coordinates": { "lat": 31.5293, "lng": 75.9080 } },
  { "id": "KVK-PB-16", "name": "Krishi Vigyan Kendra, Kapurthala", "host_institute": "Punjab Agricultural University", "district": "Kapurthala", "state": "Punjab", "coordinates": { "lat": 31.3820, "lng": 75.3856 } },
  { "id": "KVK-PB-17", "name": "Krishi Vigyan Kendra, Gurdaspur", "host_institute": "Punjab Agricultural University", "district": "Gurdaspur", "state": "Punjab", "coordinates": { "lat": 32.0401, "lng": 75.4055 } },
  { "id": "KVK-PB-18", "name": "Krishi Vigyan Kendra, Mohali", "host_institute": "Guru Angad Dev Veterinary & Animal Sciences University", "district": "Mohali", "state": "Punjab", "coordinates": { "lat": 30.7046, "lng": 76.7179 } },
  { "id": "KVK-PB-19", "name": "Krishi Vigyan Kendra, Tarn Taran", "host_institute": "Guru Angad Dev Veterinary & Animal Sciences University", "district": "Tarn Taran", "state": "Punjab", "coordinates": { "lat": 31.4503, "lng": 74.9298 } },
  { "id": "KVK-PB-20", "name": "Krishi Vigyan Kendra, Barnala", "host_institute": "Guru Angad Dev Veterinary & Animal Sciences University", "district": "Barnala", "state": "Punjab", "coordinates": { "lat": 30.3800, "lng": 75.5471 } },
  { "id": "KVK-PB-21", "name": "Krishi Vigyan Kendra, Fazilka", "host_institute": "CIPHET", "district": "Fazilka", "state": "Punjab", "coordinates": { "lat": 30.4038, "lng": 74.0254 } },
  { "id": "KVK-PB-22", "name": "Krishi Vigyan Kendra, Pathankot", "host_institute": "Punjab Agricultural University", "district": "Pathankot", "state": "Punjab", "coordinates": { "lat": 32.2643, "lng": 75.6459 } }
]