[
  { "id": "KVK-RJ-01", "name": "Krishi Vigyan Kendra, Sriganganagar", "host_institute": "Rajasthan Agricultural University", "district": "Sriganganagar", "state": "Rajasthan", "coordinates": { "lat": 29.9167, "lng": 73.8833 } },
  { "id": "KVK-RJ-02", "name": "Krishi Vigyan Kendra, Karauli (Hindon City)", "host_institute": "Rajasthan Agricultural University", "district": "Karauli", "state": "Rajasthan", "coordinates": { "lat": 26.7328, "lng": 77.0275 } },
  { "id": "KVK-RJ-03", "name": "Krishi Vigyan Kendra, Dausa", "host_institute": "Rajasthan Agricultural University", "district": "Dausa", "state": "Rajasthan", "coordinates": { "lat": 26.8922, "lng": 76.3350 } },
  { "id": "KVK-RJ-04", "name": "Krishi Vigyan Kendra, Baran (Anta)", "host_institute": "Maharana Pratap University of Agriculture and Technology", "district": "Baran", "state": "Rajasthan", "coordinates": { "lat": 25.1565, "lng": 76.3013 } },
  { "id": "KVK-RJ-05", "name": "Krishi Vigyan Kendra, Rajsamand", "host_institute": "Maharana Pratap University of Agriculture and Technology", "district": "Rajsamand", "state": "Rajasthan", "coordinates": { "lat": 25.0441, "lng": 73.8828 } },
  { "id": "KVK-RJ-06", "name": "Krishi Vigyan Kendra, Sawai Madhopur", "host_institute": "Rajasthan Agricultural University", "district": "Sawai Madhopur", "state": "Rajasthan", "coordinates": { "lat": 25.9928, "lng": 76.3526 } },
  { "id": "KVK-RJ-07", "name": "Krishi Vigyan Kendra, Ajmer", "host_institute": "Rajasthan Agricultural University", "district": "Ajmer", "state": "Rajasthan", "coordinates": { "lat": 26.3980, "lng": 74.5772 } },
  { "id": "KVK-RJ-08", "name": "Krishi Vigyan Kendra, Dholpur", "host_institute": "Rajasthan Agricultural University", "district": "Dholpur", "state": "Rajasthan", "coordinates": { "lat": 26.7020, "lng": 77.8931 } },
  { "id": "KVK-RJ-09", "name": "Krishi Vigyan Kendra, Alwar", "host_institute": "Rajasthan Agricultural University", "district": "Alwar", "state": "Rajasthan", "coordinates": { "lat": 27.5530, "lng": 76.6346 } },
  { "id": "KVK-RJ-10", "name": "Krishi Vigyan Kendra, Jaisalmer", "host_institute": "Rajasthan Agricultural University", "district": "Jaisalmer", "state": "Rajasthan", "coordinates": { "lat": 26.9157, "lng": 70.9083 } },
  { "id": "KVK-RJ-11", "name": "Krishi Vigyan Kendra, Nagaur", "host_institute": "Rajasthan Agricultural University", "district": "Nagaur", "state": "Rajasthan", "coordinates": { "lat": 27.2023, "lng": 73.7439 } },
  { "id": "KVK-RJ-12", "name": "Krishi Vigyan Kendra, Dungarpur", "host_institute": "Maharana Pratap University of Agriculture and Technology", "district": "Dungarpur", "state": "Rajasthan", "coordinates": { "lat": 23.8402, "lng": 73.7145 } },
  { "id": "KVK-RJ-13", "name": "Krishi Vigyan Kendra, Chittorgarh", "host_institute": "Maharana Pratap University of Agriculture and Technology", "district": "Chittorgarh", "state": "Rajasthan", "coordinates": { "lat": 24.8828, "lng": 74.6230 } },
  { "id": "KVK-RJ-14", "name": "Krishi Vigyan Kendra, Kota", "host_institute": "Maharana Pratap University of Agriculture and Technology", "district": "Kota", "state": "Rajasthan", "coordinates": { "lat": 25.1825, "lng": 75.8391 } },
  { "id": "KVK-RJ-15", "name": "Krishi Vigyan Kendra, Bundi", "host_institute": "Maharana Pratap University of Agriculture and Technology", "district": "Bundi", "state": "Rajasthan", "coordinates": { "lat": 25.4415, "lng": 75.6341 } },
  { "id": "KVK-RJ-16", "name": "Krishi Vigyan Kendra, Jhalawar", "host_institute": "Maharana Pratap University of Agriculture and Technology", "district": "Jhalawar", "state": "Rajasthan", "coordinates": { "lat": 24.5973, "lng": 76.1610 } },
  { "id": "KVK-RJ-17", "name": "Krishi Vigyan Kendra, Bhilwara", "host_institute": "Maharana Pratap University of Agriculture and Technology", "district": "Bhilwara", "state": "Rajasthan", "coordinates": { "lat": 25.3470, "lng": 74.6369 } },
  { "id": "KVK-RJ-18", "name": "Krishi Vigyan Kendra, Pali (CAZRI)", "host_institute": "CAZRI (ICAR)", "district": "Pali", "state": "Rajasthan", "coordinates": { "lat": 25.7711, "lng": 73.3234 } },
  { "id": "KVK-RJ-19", "name": "Krishi Vigyan Kendra, Tonk (Banasthali)", "host_institute": "Banasthali Vidyapith", "district": "Tonk", "state": "Rajasthan", "coordinates": { "lat": 26.4055, "lng": 75.8770 } },
  { "id": "KVK-RJ-20", "name": "Krishi Vigyan Kendra, Jaipur (Chomu)", "host_institute": "Pragati Trust", "district": "Jaipur", "state": "Rajasthan", "coordinates": { "lat": 27.1706, "lng": 75.7208 } },
  { "id": "KVK-RJ-21", "name": "Krishi Vigyan Kendra, Churu (Sardar Shahar)", "host_institute": "Gandhi Vidya Mandir", "district": "Churu", "state": "Rajasthan", "coordinates": { "lat": 28.4385, "lng": 74.4920 } },
  { "id": "KVK-RJ-22", "name": "Krishi Vigyan Kendra, Barmer", "host_institute": "Society for Upliftment of Rural Economy", "district": "Barmer", "state": "Rajasthan", "coordinates": { "lat": 25.7521, "lng": 71.3967 } },
  { "id": "KVK-RJ-23", "name": "Krishi Vigyan Kendra, Jhunjhunu", "host_institute": "Rajasthan Agricultural University", "district": "Jhunjhunu", "state": "Rajasthan", "coordinates": { "lat": 28.1287, "lng": 75.3995 } },
  { "id": "KVK-RJ-24", "name": "Krishi Vigyan Kendra, Sirohi", "host_institute": "Maharana Pratap University of Agriculture and Technology", "district": "Sirohi", "state": "Rajasthan", "coordinates": { "lat": 24.8826, "lng": 72.8589 } },
  { "id": "KVK-RJ-25", "name": "Krishi Vigyan Kendra, Hanumangarh (Sangaria)", "host_institute": "Gramothan Vidya Peeth", "district": "Hanumangarh", "state": "Rajasthan", "coordinates": { "lat": 29.8037, "lng": 74.4485 } },
  { "id": "KVK-RJ-26", "name": "Krishi Vigyan Kendra, Bharatpur (Kumher)", "host_institute": "Rajasthan Agricultural University", "district": "Bharatpur", "state": "Rajasthan", "coordinates": { "lat": 27.3150, "lng": 77.3752 } },
  { "id": "KVK-RJ-27", "name": "Krishi Vigyan Kendra, Jalore", "host_institute": "Rajasthan Agricultural University", "district": "Jalore", "state": "Rajasthan", "coordinates": { "lat": 25.3456, "lng": 72.6186 } },
  { "id": "KVK-RJ-28", "name": "Krishi Vigyan Kendra, Bikaner", "host_institute": "Rajasthan Agricultural University", "district": "Bikaner", "state": "Rajasthan", "coordinates": { "lat": 28.0229, "lng": 73.3119 } },
  { "id": "KVK-RJ-29", "name": "Krishi Vigyan Kendra, Banswara", "host_institute": "Maharana Pratap University of Agriculture and Technology", "district": "Banswara", "state": "Rajasthan", "coordinates": { "lat": 23.5461, "lng": 74.4350 } },
  { "id": "KVK-RJ-30", "name": "Krishi Vigyan Kendra, Jodhpur (CAZRI)", "host_institute": "CAZRI (ICAR)", "district": "Jodhpur", "state": "Rajasthan", "coordinates": { "lat": 26.2389, "lng": 73.0243 } },
  { "id": "KVK-RJ-31", "name": "Krishi Vigyan Kendra, Udaipur", "host_institute": "Vidya Bhawan Society", "district": "Udaipur", "state": "Rajasthan", "coordinates": { "lat": 24.6183, "lng": 73.6826 } },
  { "id": "KVK-RJ-32", "name": "Krishi Vigyan Kendra, Sikar (Fatehpur)", "host_institute": "Rajasthan Agricultural University", "district": "Sikar", "state": "Rajasthan", "coordinates": { "lat": 27.9942, "lng": 74.9534 } },
  { "id": "KVK-RJ-33", "name": "Krishi Vigyan Kendra, Alwar (Bansur)", "host_institute": "Directorate of Rapeseed-Mustard Research", "district": "Alwar", "state": "Rajasthan", "coordinates": { "lat": 27.6841, "lng": 76.3453 } },
  { "id": "KVK-RJ-34", "name": "Krishi Vigyan Kendra, Nagaur (Didwana)", "host_institute": "Swami Keshwanand Rajasthan Agricultural University", "district": "Nagaur", "state": "Rajasthan", "coordinates": { "lat": 27.3970, "lng": 74.5684 } },
  { "id": "KVK-RJ-35", "name": "Krishi Vigyan Kendra, Jaipur (Kotputli)", "host_institute": "Swami Keshwanand Rajasthan Agricultural University", "district": "Jaipur", "state": "Rajasthan", "coordinates": { "lat": 27.7029, "lng": 76.2023 } },
  { "id": "KVK-RJ-36", "name": "Krishi Vigyan Kendra, Churu (Chandgothi)", "host_institute": "Swami Keshwanand Rajasthan Agricultural University", "district": "Churu", "state": "Rajasthan", "coordinates": { "lat": 28.6657, "lng": 75.4542 } },
  { "id": "KVK-RJ-37", "name": "Krishi Vigyan Kendra, Jodhpur (Phalodi)", "host_institute": "Swami Keshwanand Rajasthan Agricultural University", "district": "Jodhpur", "state": "Rajasthan", "coordinates": { "lat": 27.1306, "lng": 72.3644 } },
  { "id": "KVK-RJ-38", "name": "Krishi Vigyan Kendra, Hanumangarh (Nohar)", "host_institute": "Rajasthan University of Veterinary & Animal Sciences", "district": "Hanumangarh", "state": "Rajasthan", "coordinates": { "lat": 29.1824, "lng": 74.7709 } },
  { "id": "KVK-RJ-39", "name": "Krishi Vigyan Kendra, Pratapgarh", "host_institute": "Maharana Pratap University of Agriculture and Technology", "district": "Pratapgarh", "state": "Rajasthan", "coordinates": { "lat": 24.0305, "lng": 74.7801 } },
  { "id": "KVK-RJ-40", "name": "Krishi Vigyan Kendra, Barmer (Guda Malani)", "host_institute": "Swami Keshwanand Rajasthan Agricultural University", "district": "Barmer", "state": "Rajasthan", "coordinates": { "lat": 25.1873, "lng": 71.7486 } },
  { "id": "KVK-RJ-41", "name": "Krishi Vigyan Kendra, Bikaner (Lunkaransar)", "host_institute": "Swami Keshwanand Rajasthan Agricultural University", "district": "Bikaner", "state": "Rajasthan", "coordinates": { "lat": 28.4988, "lng": 73.7486 } },
  { "id": "KVK-RJ-42", "name": "Krishi Vigyan Kendra, Jaisalmer (Pokaran)", "host_institute": "Swami Keshwanand Rajasthan Agricultural University", "district": "Jaisalmer", "state": "Rajasthan", "coordinates": { "lat": 26.9209, "lng": 71.9189 } },
  { "id": "KVK-RJ-43", "name": "Krishi Vigyan Kendra, Udaipur (Mavli)", "host_institute": "Maharana Pratap University of Agriculture and Technology", "district": "Udaipur", "state": "Rajasthan", "coordinates": { "lat": 24.7850, "lng": 73.9877 } },
  { "id": "KVK-RJ-44", "name": "Krishi Vigyan Kendra, Bhilwara (Shahpura)", "host_institute": "Maharana Pratap University of Agriculture and Technology", "district": "Bhilwara", "state": "Rajasthan", "coordinates": { "lat": 25.6268, "lng": 74.9276 } },
  { "id": "KVK-RJ-45", "name": "Krishi Vigyan Kendra, Jalore (Bamanwara)", "host_institute": "Agriculture University, Jodhpur", "district": "Jalore", "state": "Rajasthan", "coordinates": { "lat": 24.9654, "lng": 72.8465 } },
  { "id": "KVK-RJ-46", "name": "Krishi Vigyan Kendra, Pali (Raipur)", "host_institute": "Agriculture University, Jodhpur", "district": "Pali", "state": "Rajasthan", "coordinates": { "lat": 26.0422, "lng": 74.0336 } },
  { "id": "KVK-RJ-47", "name": "Krishi Vigyan Kendra, Sikar (Arnia)", "host_institute": "Sri Karan Narendra Agriculture University", "district": "Sikar", "state": "Rajasthan", "coordinates": { "lat": 27.3500, "lng": 75.1400 } }
]