[
  { "id": "KVK-WB-01", "name": "Krishi Vigyan Kendra, Murshidabad (Bhagwangola)", "host_institute": "WBUAFS", "district": "Murshidabad", "state": "West Bengal", "coordinates": { "lat": 24.3181, "lng": 88.3031 } },
  { "id": "KVK-WB-02", "name": "Krishi Vigyan Kendra, Uttar Dinajpur (Chopra)", "host_institute": "Uttar Banga Krishi Vishwa Vidyalaya", "district": "Uttar Dinajpur", "state": "West Bengal", "coordinates": { "lat": 26.3601, "lng": 88.2492 } },
  { "id": "KVK-WB-03", "name": "Krishi Vigyan Kendra, Howrah", "host_institute": "Bidhan Chandra Krishi Vishwa Vidyalaya", "district": "Howrah", "state": "West Bengal", "coordinates": { "lat": 22.6416, "lng": 88.1091 } },
  { "id": "KVK-WB-04", "name": "Krishi Vigyan Kendra, Hooghly (Chinsurah)", "host_institute": "Bidhan Chandra Krishi Vishwa Vidyalaya", "district": "Hooghly", "state": "West Bengal", "coordinates": { "lat": 22.8941, "lng": 88.3912 } },
  { "id": "KVK-WB-05", "name": "Krishi Vigyan Kendra, North 24 Parganas (Ashoknagar)", "host_institute": "WBUAFS", "district": "North 24 Parganas", "state": "West Bengal", "coordinates": { "lat": 22.8335, "lng": 88.6277 } },
  { "id": "KVK-WB-06", "name": "Krishi Vigyan Kendra, Bardhaman (Bud Bud)", "host_institute": "CRIJAF (ICAR)", "district": "Purba Bardhaman", "state": "West Bengal", "coordinates": { "lat": 23.4116, "lng": 87.5367 } },
  { "id": "KVK-WB-07", "name": "Krishi Vigyan Kendra, Coochbehar (Pundibari)", "host_institute": "Uttar Banga Krishi Vishwa Vidyalaya", "district": "Coochbehar", "state": "West Bengal", "coordinates": { "lat": 26.3986, "lng": 89.3878 } },
  { "id": "KVK-WB-08", "name": "Krishi Vigyan Kendra, Malda (Ratua)", "host_institute": "Uttar Banga Krishi Vishwa Vidyalaya", "district": "Malda", "state": "West Bengal", "coordinates": { "lat": 25.1417, "lng": 87.9405 } },
  { "id": "KVK-WB-09", "name": "Krishi Vigyan Kendra, Dakshin Dinajpur", "host_institute": "Uttar Banga Krishi Vishwa Vidyalaya", "district": "Dakshin Dinajpur", "state": "West Bengal", "coordinates": { "lat": 25.3213, "lng": 88.7562 } },
  { "id": "KVK-WB-10", "name": "Krishi Vigyan Kendra, Nadia (Gayeshpur)", "host_institute": "Bidhan Chandra Krishi Vishwa Vidyalaya", "district": "Nadia", "state": "West Bengal", "coordinates": { "lat": 22.9647, "lng": 88.4878 } },
  { "id": "KVK-WB-11", "name": "Rathindra Krishi Vigyan Kendra, Birbhum", "host_institute": "Visva-Bharati University", "district": "Birbhum", "state": "West Bengal", "coordinates": { "lat": 23.6800, "lng": 87.6775 } },
  { "id": "KVK-WB-12", "name": "Krishi Vigyan Kendra, Kalimpong", "host_institute": "Uttar Banga Krishi Vishwa Vidyalaya", "district": "Kalimpong", "state": "West Bengal", "coordinates": { "lat": 27.0594, "lng": 88.4694 } },
  { "id": "KVK-WB-13", "name": "Krishi Vigyan Kendra, Purulia (Kalyan)", "host_institute": "Kalyan (NGO)", "district": "Purulia", "state": "West Bengal", "coordinates": { "lat": 23.3321, "lng": 86.3652 } },
  { "id": "KVK-WB-14", "name": "Krishi Vigyan Kendra, Jalpaiguri", "host_institute": "WBUAFS", "district": "Jalpaiguri", "state": "West Bengal", "coordinates": { "lat": 26.5401, "lng": 88.7193 } },
  { "id": "KVK-WB-15", "name": "Krishi Vigyan Kendra, Bankura (Sonamukhi)", "host_institute": "WBCADC", "district": "Bankura", "state": "West Bengal", "coordinates": { "lat": 23.3001, "lng": 87.4116 } },
  { "id": "KVK-WB-16", "name": "Krishi Vigyan Kendra, South 24 Parganas (Nimpith)", "host_institute": "Sri Ramkrishna Ashram", "district": "South 24 Parganas", "state": "West Bengal", "coordinates": { "lat": 22.1557, "lng": 88.4357 } },
  { "id": "KVK-WB-17", "name": "Krishi Vigyan Kendra, West Medinipur (Kapgari)", "host_institute": "Seva Bharati", "district": "Paschim Medinipur", "state": "West Bengal", "coordinates": { "lat": 22.4257, "lng": 86.9150 } },
  { "id": "KVK-WB-18", "name": "Krishi Vigyan Kendra, South 24 Parganas (Arapanch)", "host_institute": "Ramakrishna Mission Vivekananda University", "district": "South 24 Parganas", "state": "West Bengal", "coordinates": { "lat": 22.4355, "lng": 88.3975 } },
  { "id": "KVK-WB-19", "name": "Krishi Vigyan Kendra, Malda (CISH)", "host_institute": "ICAR-CISH", "district": "Malda", "state": "West Bengal", "coordinates": { "lat": 25.0108, "lng": 88.1411 } },
  { "id": "KVK-WB-20", "name": "Krishi Vigyan Kendra, North 24 Parganas (CRIJAF)", "host_institute": "ICAR-CRIJAF", "district": "North 24 Parganas", "state": "West Bengal", "coordinates": { "lat": 22.7634, "lng": 88.4230 } },
  { "id": "KVK-WB-21", "name": "Krishi Vigyan Kendra, North 24 Parganas (North Farm)", "host_institute": "ICAR-CRIJAF", "district": "North 24 Parganas", "state": "West Bengal", "coordinates": { "lat": 22.7500, "lng": 88.4000 } },
  { "id": "KVK-WB-22", "name": "Krishi Vigyan Kendra, Nadia (NDRI)", "host_institute": "ICAR-NDRI", "district": "Nadia", "state": "West Bengal", "coordinates": { "lat": 22.9750, "lng": 88.4344 } },
  { "id": "KVK-WB-23", "name": "Krishi Vigyan Kendra, Murshidabad (Sargachi)", "host_institute": "Ramakrishna Mission Vivekananda University", "district": "Murshidabad", "state": "West Bengal", "coordinates": { "lat": 23.9912, "lng": 88.2575 } }
]